[
    {
        "id":260,
        "name":"Аделаида",
        "code":"adld",
        "count":0,
        "country_id":1,
        "country":"Австралия",
        "pop":0.0000,
        "lat":-34.92866,
        "lon":138.59863
    },
    {
        "id":258,
        "name":"Брисбен",
        "code":"brsb",
        "count":0,
        "country_id":1,
        "country":"Австралия",
        "pop":0.0000,
        "lat":-27.46794,
        "lon":153.02809
    },
    {
        "id":259,
        "name":"Голд-Кост",
        "code":"gcst",
        "count":0,
        "country_id":1,
        "country":"Австралия",
        "pop":0.0055,
        "lat":-28.0170292,
        "lon":153.407796
    },
    {
        "id":257,
        "name":"Мельбурн",
        "code":"mlbr",
        "count":0,
        "country_id":1,
        "country":"Австралия",
        "pop":0.0073,
        "lat":-37.814,
        "lon":144.96332
    },
    {
        "id":256,
        "name":"Сидней",
        "code":"sdn",
        "count":1,
        "country_id":1,
        "country":"Австралия",
        "pop":0.0436,
        "lat":-33.86785,
        "lon":151.20732
    },
    {
        "id":340,
        "name":"Куала-Лумпур",
        "code":"kllmp",
        "count":3,
        "country_id":2,
        "country":"Малайзия",
        "pop":0.0245,
        "lat":3.147778,
        "lon":101.695278
    },
    {
        "id":269,
        "name":"Сеул",
        "code":"seoul",
        "count":6,
        "country_id":3,
        "country":"Республика Корея",
        "pop":0.1444,
        "lat":37.566,
        "lon":126.9784
    },
    {
        "id":78,
        "name":"Гонконг",
        "code":"hgkg",
        "count":5,
        "country_id":4,
        "country":"Китай",
        "pop":0.0527,
        "lat":22.28552,
        "lon":114.15769
    },
    {
        "id":59,
        "name":"Гуанчжоу",
        "code":"guan",
        "count":0,
        "country_id":4,
        "country":"Китай",
        "pop":0.0327,
        "lat":23.11667,
        "lon":113.25
    },
    {
        "id":58,
        "name":"Пекин",
        "code":"beij",
        "count":3,
        "country_id":4,
        "country":"Китай",
        "pop":0.0418,
        "lat":39.9075,
        "lon":116.39723
    },
    {
        "id":301,
        "name":"Шэньчжэнь",
        "code":"shnzn",
        "count":0,
        "country_id":4,
        "country":"Китай",
        "pop":0.0218,
        "lat":22.54554,
        "lon":114.0683
    },
    {
        "id":306,
        "name":"Токио",
        "code":"tko",
        "count":3,
        "country_id":5,
        "country":"Япония",
        "pop":0.0790,
        "lat":35.68510630676608,
        "lon":139.75284418833053
    },
    {
        "id":251,
        "name":"Бангкок",
        "code":"bngk",
        "count":14,
        "country_id":9,
        "country":"Таиланд",
        "pop":0.2371,
        "lat":13.75398,
        "lon":100.50144
    },
    {
        "id":255,
        "name":"Краби",
        "code":"krb",
        "count":1,
        "country_id":9,
        "country":"Таиланд",
        "pop":0.0055,
        "lat":8.07257,
        "lon":98.91052
    },
    {
        "id":250,
        "name":"Паттайя",
        "code":"ptty",
        "count":9,
        "country_id":9,
        "country":"Таиланд",
        "pop":0.2435,
        "lat":12.93333,
        "lon":100.88333
    },
    {
        "id":253,
        "name":"Пханган",
        "code":"phng",
        "count":3,
        "country_id":9,
        "country":"Таиланд",
        "pop":0.0064,
        "lat":9.7349696,
        "lon":100.021205
    },
    {
        "id":248,
        "name":"Пхукет",
        "code":"phuk",
        "count":17,
        "country_id":9,
        "country":"Таиланд",
        "pop":0.6005,
        "lat":7.89059,
        "lon":98.3981
    },
    {
        "id":252,
        "name":"Самуй",
        "code":"samui",
        "count":7,
        "country_id":9,
        "country":"Таиланд",
        "pop":0.0245,
        "lat":9.5010869,
        "lon":100.0014125
    },
    {
        "id":254,
        "name":"Чанг",
        "code":"chng",
        "count":1,
        "country_id":9,
        "country":"Таиланд",
        "pop":0.0036,
        "lat":12.0500124,
        "lon":102.3392141
    },
    {
        "id":228,
        "name":"Канны",
        "code":"cann",
        "count":0,
        "country_id":12,
        "country":"Франция",
        "pop":0.0127,
        "lat":43.55135,
        "lon":7.01275
    },
    {
        "id":230,
        "name":"Лион",
        "code":"lyon",
        "count":0,
        "country_id":12,
        "country":"Франция",
        "pop":0.0109,
        "lat":45.74846,
        "lon":4.84671
    },
    {
        "id":229,
        "name":"Марсель",
        "code":"mars",
        "count":0,
        "country_id":12,
        "country":"Франция",
        "pop":0.0045,
        "lat":43.29695,
        "lon":5.38107
    },
    {
        "id":145,
        "name":"Ницца",
        "code":"nice",
        "count":0,
        "country_id":12,
        "country":"Франция",
        "pop":0.0663,
        "lat":43.70313,
        "lon":7.26608
    },
    {
        "id":90,
        "name":"Париж",
        "code":"paris",
        "count":3,
        "country_id":12,
        "country":"Франция",
        "pop":0.2307,
        "lat":48.85341,
        "lon":2.3488
    },
    {
        "id":233,
        "name":"Катания",
        "code":"catan",
        "count":0,
        "country_id":13,
        "country":"Италия",
        "pop":0.0027,
        "lat":37.503,
        "lon":15.08638
    },
    {
        "id":88,
        "name":"Милан",
        "code":"milan",
        "count":3,
        "country_id":13,
        "country":"Италия",
        "pop":0.2298,
        "lat":45.46427,
        "lon":9.18951
    },
    {
        "id":232,
        "name":"Неаполь",
        "code":"npls",
        "count":0,
        "country_id":13,
        "country":"Италия",
        "pop":0.0082,
        "lat":40.83333,
        "lon":14.25
    },
    {
        "id":234,
        "name":"Палермо",
        "code":"plrm",
        "count":0,
        "country_id":13,
        "country":"Италия",
        "pop":0.0009,
        "lat":38.11582,
        "lon":13.35976
    },
    {
        "id":357,
        "name":"Парма",
        "code":"prm",
        "count":0,
        "country_id":13,
        "country":"Италия",
        "pop":0.0027,
        "lat":44.801472,
        "lon":10.328
    },
    {
        "id":146,
        "name":"Рим",
        "code":"rome",
        "count":3,
        "country_id":13,
        "country":"Италия",
        "pop":0.1172,
        "lat":41.89474,
        "lon":12.4839
    },
    {
        "id":231,
        "name":"Римини",
        "code":"rmn",
        "count":0,
        "country_id":13,
        "country":"Италия",
        "pop":0.0045,
        "lat":44.06333,
        "lon":12.58083
    },
    {
        "id":358,
        "name":"Флоренция",
        "code":"flrnc",
        "count":0,
        "country_id":13,
        "country":"Италия",
        "pop":0.0073,
        "lat":43.771389,
        "lon":11.254167
    },
    {
        "id":300,
        "name":"Абу-Даби",
        "code":"abdb",
        "count":1,
        "country_id":14,
        "country":"Объединенные Арабские Эмираты",
        "pop":0.0400,
        "lat":24.46667,
        "lon":54.36667
    },
    {
        "id":56,
        "name":"Дубай",
        "code":"dubai",
        "count":36,
        "country_id":14,
        "country":"Объединенные Арабские Эмираты",
        "pop":2.6543,
        "lat":25.25817,
        "lon":55.30472
    },
    {
        "id":92,
        "name":"Стокгольм",
        "code":"stock",
        "count":1,
        "country_id":15,
        "country":"Швеция",
        "pop":0.0145,
        "lat":59.33258,
        "lon":18.0649
    },
    {
        "id":125,
        "name":"Актобе",
        "code":"akt",
        "count":0,
        "country_id":16,
        "country":"Казахстан",
        "pop":0.0000,
        "lat":50.27969,
        "lon":57.20718
    },
    {
        "id":123,
        "name":"Алма-Ата",
        "code":"alm",
        "count":18,
        "country_id":16,
        "country":"Казахстан",
        "pop":0.8757,
        "lat":43.25654,
        "lon":76.92848
    },
    {
        "id":19,
        "name":"Астана",
        "code":"astn",
        "count":18,
        "country_id":16,
        "country":"Казахстан",
        "pop":0.7240,
        "lat":51.1801,
        "lon":71.44598
    },
    {
        "id":126,
        "name":"Караганда",
        "code":"krgn",
        "count":0,
        "country_id":16,
        "country":"Казахстан",
        "pop":0.0000,
        "lat":49.83333,
        "lon":73.1658
    },
    {
        "id":5,
        "name":"Костанай",
        "code":"kst",
        "count":0,
        "country_id":16,
        "country":"Казахстан",
        "pop":0.0000,
        "lat":53.21435,
        "lon":63.62463
    },
    {
        "id":124,
        "name":"Шымкент",
        "code":"shym",
        "count":4,
        "country_id":16,
        "country":"Казахстан",
        "pop":0.0436,
        "lat":42.3,
        "lon":69.6
    },
    {
        "id":41,
        "name":"Экибастуз",
        "code":"ekib",
        "count":0,
        "country_id":16,
        "country":"Казахстан",
        "pop":0.0000,
        "lat":51.72371,
        "lon":75.32287
    },
    {
        "id":346,
        "name":"Кашкайш",
        "code":"cscs",
        "count":0,
        "country_id":17,
        "country":"Португалия",
        "pop":0.0018,
        "lat":38.7,
        "lon":-9.416667
    },
    {
        "id":204,
        "name":"Лиссабон",
        "code":"lisb",
        "count":1,
        "country_id":17,
        "country":"Португалия",
        "pop":0.2053,
        "lat":38.71667,
        "lon":-9.13333
    },
    {
        "id":203,
        "name":"Порту",
        "code":"prt",
        "count":0,
        "country_id":17,
        "country":"Португалия",
        "pop":0.0154,
        "lat":41.14961,
        "lon":-8.61099
    },
    {
        "id":292,
        "name":"Фару",
        "code":"faro",
        "count":0,
        "country_id":17,
        "country":"Португалия",
        "pop":0.0018,
        "lat":37.01937,
        "lon":-7.93223
    },
    {
        "id":205,
        "name":"Фуншал",
        "code":"fnch",
        "count":0,
        "country_id":17,
        "country":"Португалия",
        "pop":0.0045,
        "lat":32.63333,
        "lon":-16.9
    },
    {
        "id":177,
        "name":"Афины",
        "code":"ath",
        "count":4,
        "country_id":18,
        "country":"Греция",
        "pop":0.0836,
        "lat":37.97945,
        "lon":23.71622
    },
    {
        "id":282,
        "name":"Салоники",
        "code":"thssl",
        "count":1,
        "country_id":18,
        "country":"Греция",
        "pop":0.0254,
        "lat":40.64362,
        "lon":22.93086
    },
    {
        "id":286,
        "name":"Джедда",
        "code":"jddh",
        "count":4,
        "country_id":19,
        "country":"Саудовская Аравия",
        "pop":0.0055,
        "lat":21.4843534,
        "lon":39.1940964
    },
    {
        "id":172,
        "name":"Адлер",
        "code":"adler",
        "count":7,
        "country_id":20,
        "country":"Россия",
        "pop":0.0363,
        "lat":43.4392765,
        "lon":39.9377076
    },
    {
        "id":99,
        "name":"Анапа",
        "code":"anapa",
        "count":4,
        "country_id":20,
        "country":"Россия",
        "pop":0.0545,
        "lat":44.89084,
        "lon":37.3239
    },
    {
        "id":100,
        "name":"Архангельск",
        "code":"arkh",
        "count":8,
        "country_id":20,
        "country":"Россия",
        "pop":0.0327,
        "lat":64.5401,
        "lon":40.5433
    },
    {
        "id":101,
        "name":"Астрахань",
        "code":"astra",
        "count":8,
        "country_id":20,
        "country":"Россия",
        "pop":0.0291,
        "lat":46.34968,
        "lon":48.04076
    },
    {
        "id":270,
        "name":"Барнаул",
        "code":"brnl",
        "count":2,
        "country_id":20,
        "country":"Россия",
        "pop":0.1472,
        "lat":53.36056,
        "lon":83.76361
    },
    {
        "id":163,
        "name":"Белгород",
        "code":"blgr",
        "count":4,
        "country_id":20,
        "country":"Россия",
        "pop":0.0690,
        "lat":50.61074,
        "lon":36.58015
    },
    {
        "id":30,
        "name":"Брянск",
        "code":"brn",
        "count":5,
        "country_id":20,
        "country":"Россия",
        "pop":0.0627,
        "lat":53.25209,
        "lon":34.37167
    },
    {
        "id":127,
        "name":"Владивосток",
        "code":"vvo",
        "count":9,
        "country_id":20,
        "country":"Россия",
        "pop":0.5232,
        "lat":43.10562,
        "lon":131.87353
    },
    {
        "id":176,
        "name":"Владимир",
        "code":"vlad",
        "count":5,
        "country_id":20,
        "country":"Россия",
        "pop":0.0500,
        "lat":56.13655,
        "lon":40.39658
    },
    {
        "id":24,
        "name":"Волгоград",
        "code":"vlgd",
        "count":11,
        "country_id":20,
        "country":"Россия",
        "pop":0.2625,
        "lat":48.71939,
        "lon":44.50184
    },
    {
        "id":102,
        "name":"Воронеж",
        "code":"voron",
        "count":12,
        "country_id":20,
        "country":"Россия",
        "pop":0.6286,
        "lat":51.67204,
        "lon":39.1843
    },
    {
        "id":135,
        "name":"Геленджик",
        "code":"glnd",
        "count":4,
        "country_id":20,
        "country":"Россия",
        "pop":0.0173,
        "lat":44.5622,
        "lon":38.0848
    },
    {
        "id":128,
        "name":"Грозный",
        "code":"grz",
        "count":2,
        "country_id":20,
        "country":"Россия",
        "pop":0.0282,
        "lat":43.31195,
        "lon":45.68895
    },
    {
        "id":8,
        "name":"Екатеринбург",
        "code":"ekb",
        "count":18,
        "country_id":20,
        "country":"Россия",
        "pop":1.5715,
        "lat":56.8519,
        "lon":60.6122
    },
    {
        "id":242,
        "name":"Елец",
        "code":"ylts",
        "count":0,
        "country_id":20,
        "country":"Россия",
        "pop":0.0027,
        "lat":52.616623,
        "lon":38.513552
    },
    {
        "id":45,
        "name":"Ижевск",
        "code":"izhv",
        "count":8,
        "country_id":20,
        "country":"Россия",
        "pop":0.2407,
        "lat":56.84976,
        "lon":53.20448
    },
    {
        "id":31,
        "name":"Иркутск",
        "code":"irk",
        "count":10,
        "country_id":20,
        "country":"Россия",
        "pop":0.8030,
        "lat":52.29778,
        "lon":104.29639
    },
    {
        "id":103,
        "name":"Йошкар-Ола",
        "code":"yola",
        "count":8,
        "country_id":20,
        "country":"Россия",
        "pop":0.0509,
        "lat":56.63877,
        "lon":47.89078
    },
    {
        "id":12,
        "name":"Казань",
        "code":"kzn",
        "count":16,
        "country_id":20,
        "country":"Россия",
        "pop":1.3962,
        "lat":55.78874,
        "lon":49.12214
    },
    {
        "id":104,
        "name":"Калининград",
        "code":"klng",
        "count":11,
        "country_id":20,
        "country":"Россия",
        "pop":0.3715,
        "lat":54.70649,
        "lon":20.51095
    },
    {
        "id":105,
        "name":"Калуга",
        "code":"klg",
        "count":8,
        "country_id":20,
        "country":"Россия",
        "pop":0.0545,
        "lat":54.5293,
        "lon":36.27542
    },
    {
        "id":22,
        "name":"Кемерово",
        "code":"kem",
        "count":6,
        "country_id":20,
        "country":"Россия",
        "pop":0.1426,
        "lat":55.33333,
        "lon":86.08333
    },
    {
        "id":106,
        "name":"Киров",
        "code":"kirov",
        "count":8,
        "country_id":20,
        "country":"Россия",
        "pop":0.0645,
        "lat":58.59665,
        "lon":49.66007
    },
    {
        "id":107,
        "name":"Кострома",
        "code":"kost",
        "count":8,
        "country_id":20,
        "country":"Россия",
        "pop":0.0200,
        "lat":57.76647,
        "lon":40.92686
    },
    {
        "id":53,
        "name":"Краснодар",
        "code":"krasn",
        "count":13,
        "country_id":20,
        "country":"Россия",
        "pop":2.2365,
        "lat":45.04484,
        "lon":38.97603
    },
    {
        "id":23,
        "name":"Красноярск",
        "code":"krsk",
        "count":7,
        "country_id":20,
        "country":"Россия",
        "pop":0.4061,
        "lat":56.01839,
        "lon":92.86717
    },
    {
        "id":13,
        "name":"Курск",
        "code":"kursk",
        "count":4,
        "country_id":20,
        "country":"Россия",
        "pop":0.0291,
        "lat":51.73733,
        "lon":36.18735
    },
    {
        "id":108,
        "name":"Липецк",
        "code":"lpt",
        "count":4,
        "country_id":20,
        "country":"Россия",
        "pop":0.0445,
        "lat":52.60311,
        "lon":39.57076
    },
    {
        "id":109,
        "name":"Магнитогорск",
        "code":"mgnt",
        "count":8,
        "country_id":20,
        "country":"Россия",
        "pop":0.0291,
        "lat":53.41861,
        "lon":59.04722
    },
    {
        "id":138,
        "name":"Махачкала",
        "code":"mhkl",
        "count":3,
        "country_id":20,
        "country":"Россия",
        "pop":0.0227,
        "lat":42.97638,
        "lon":47.50236
    },
    {
        "id":1,
        "name":"Москва",
        "code":"msk",
        "count":40,
        "country_id":20,
        "country":"Россия",
        "pop":32.8658,
        "lat":55.75222,
        "lon":37.61556
    },
    {
        "id":161,
        "name":"Мурманск",
        "code":"mrmk",
        "count":4,
        "country_id":20,
        "country":"Россия",
        "pop":0.0327,
        "lat":68.97917,
        "lon":33.09251
    },
    {
        "id":44,
        "name":"Набережные Челны",
        "code":"nabch",
        "count":6,
        "country_id":20,
        "country":"Россия",
        "pop":0.0699,
        "lat":55.72545,
        "lon":52.41122
    },
    {
        "id":14,
        "name":"Нижний Новгород",
        "code":"nnov",
        "count":10,
        "country_id":20,
        "country":"Россия",
        "pop":0.7821,
        "lat":56.32867,
        "lon":44.00205
    },
    {
        "id":73,
        "name":"Новокузнецк",
        "code":"nvkzn",
        "count":6,
        "country_id":20,
        "country":"Россия",
        "pop":0.0309,
        "lat":53.7557,
        "lon":87.1099
    },
    {
        "id":98,
        "name":"Новороссийск",
        "code":"novor",
        "count":5,
        "country_id":20,
        "country":"Россия",
        "pop":0.0927,
        "lat":44.72439,
        "lon":37.76752
    },
    {
        "id":17,
        "name":"Новосибирск",
        "code":"nsk",
        "count":11,
        "country_id":20,
        "country":"Россия",
        "pop":1.4080,
        "lat":55.0415,
        "lon":82.9346
    },
    {
        "id":16,
        "name":"Омск",
        "code":"omsk",
        "count":11,
        "country_id":20,
        "country":"Россия",
        "pop":0.2416,
        "lat":54.99244,
        "lon":73.36859
    },
    {
        "id":136,
        "name":"Орел",
        "code":"oryol",
        "count":5,
        "country_id":20,
        "country":"Россия",
        "pop":0.0209,
        "lat":52.96508,
        "lon":36.0785
    },
    {
        "id":110,
        "name":"Оренбург",
        "code":"oren",
        "count":6,
        "country_id":20,
        "country":"Россия",
        "pop":0.1472,
        "lat":51.7727,
        "lon":55.0988
    },
    {
        "id":111,
        "name":"Пенза",
        "code":"penza",
        "count":9,
        "country_id":20,
        "country":"Россия",
        "pop":0.0863,
        "lat":53.20066,
        "lon":45.00464
    },
    {
        "id":34,
        "name":"Пермь",
        "code":"perm",
        "count":9,
        "country_id":20,
        "country":"Россия",
        "pop":0.2943,
        "lat":58.01046,
        "lon":56.25017
    },
    {
        "id":202,
        "name":"Петрозаводск",
        "code":"ptrs",
        "count":4,
        "country_id":20,
        "country":"Россия",
        "pop":0.0391,
        "lat":61.78491,
        "lon":34.34691
    },
    {
        "id":42,
        "name":"Пятигорск",
        "code":"ptgr",
        "count":8,
        "country_id":20,
        "country":"Россия",
        "pop":0.1072,
        "lat":44.04861,
        "lon":43.05944
    },
    {
        "id":173,
        "name":"Ростов",
        "code":"rstv",
        "count":5,
        "country_id":20,
        "country":"Россия",
        "pop":0.0055,
        "lat":57.1914,
        "lon":39.41394
    },
    {
        "id":29,
        "name":"Ростов-на-Дону",
        "code":"rsnd",
        "count":11,
        "country_id":20,
        "country":"Россия",
        "pop":1.0992,
        "lat":47.23135,
        "lon":39.72328
    },
    {
        "id":137,
        "name":"Рязань",
        "code":"rzn",
        "count":7,
        "country_id":20,
        "country":"Россия",
        "pop":0.0527,
        "lat":54.6269,
        "lon":39.6916
    },
    {
        "id":298,
        "name":"Салават",
        "code":"slvt",
        "count":2,
        "country_id":20,
        "country":"Россия",
        "pop":0.0018,
        "lat":53.38365,
        "lon":55.90773
    },
    {
        "id":6,
        "name":"Самара",
        "code":"smr",
        "count":11,
        "country_id":20,
        "country":"Россия",
        "pop":0.6359,
        "lat":53.20006,
        "lon":50.15
    },
    {
        "id":2,
        "name":"Санкт-Петербург",
        "code":"spb",
        "count":23,
        "country_id":20,
        "country":"Россия",
        "pop":10.5338,
        "lat":59.93863,
        "lon":30.31413
    },
    {
        "id":112,
        "name":"Саранск",
        "code":"srn",
        "count":8,
        "country_id":20,
        "country":"Россия",
        "pop":0.0254,
        "lat":54.1838,
        "lon":45.1749
    },
    {
        "id":113,
        "name":"Саратов",
        "code":"srt",
        "count":8,
        "country_id":20,
        "country":"Россия",
        "pop":0.1408,
        "lat":51.54056,
        "lon":46.00861
    },
    {
        "id":169,
        "name":"Севастополь",
        "code":"svstp",
        "count":4,
        "country_id":20,
        "country":"Россия",
        "pop":0.0818,
        "lat":44.58883,
        "lon":33.5224
    },
    {
        "id":184,
        "name":"Северодвинск",
        "code":"svrd",
        "count":2,
        "country_id":20,
        "country":"Россия",
        "pop":0.0018,
        "lat":64.5635,
        "lon":39.8302
    },
    {
        "id":25,
        "name":"Симферополь",
        "code":"simf",
        "count":4,
        "country_id":20,
        "country":"Россия",
        "pop":0.3434,
        "lat":44.95719,
        "lon":34.11079
    },
    {
        "id":15,
        "name":"Сочи",
        "code":"sochi",
        "count":17,
        "country_id":20,
        "country":"Россия",
        "pop":0.6522,
        "lat":43.59917,
        "lon":39.72569
    },
    {
        "id":7,
        "name":"Ставрополь",
        "code":"stav",
        "count":8,
        "country_id":20,
        "country":"Россия",
        "pop":0.2153,
        "lat":45.0428,
        "lon":41.9734
    },
    {
        "id":164,
        "name":"Старый Оскол",
        "code":"stos",
        "count":3,
        "country_id":20,
        "country":"Россия",
        "pop":0.0273,
        "lat":51.29667,
        "lon":37.84167
    },
    {
        "id":299,
        "name":"Стерлитамак",
        "code":"strlt",
        "count":2,
        "country_id":20,
        "country":"Россия",
        "pop":0.0145,
        "lat":53.62462,
        "lon":55.95015
    },
    {
        "id":157,
        "name":"Сургут",
        "code":"sgt",
        "count":8,
        "country_id":20,
        "country":"Россия",
        "pop":0.0545,
        "lat":61.25,
        "lon":73.41667
    },
    {
        "id":263,
        "name":"Сыктывкар",
        "code":"sktk",
        "count":4,
        "country_id":20,
        "country":"Россия",
        "pop":0.0236,
        "lat":61.67642,
        "lon":50.80994
    },
    {
        "id":20,
        "name":"Таганрог",
        "code":"tgn",
        "count":5,
        "country_id":20,
        "country":"Россия",
        "pop":0.0372,
        "lat":47.23617,
        "lon":38.89688
    },
    {
        "id":114,
        "name":"Тамбов",
        "code":"tamb",
        "count":8,
        "country_id":20,
        "country":"Россия",
        "pop":0.0209,
        "lat":52.73169,
        "lon":41.44326
    },
    {
        "id":115,
        "name":"Тверь",
        "code":"tver",
        "count":7,
        "country_id":20,
        "country":"Россия",
        "pop":0.0245,
        "lat":56.85836,
        "lon":35.90057
    },
    {
        "id":264,
        "name":"Тольятти",
        "code":"tltt",
        "count":4,
        "country_id":20,
        "country":"Россия",
        "pop":0.1681,
        "lat":53.5303,
        "lon":49.3461
    },
    {
        "id":276,
        "name":"Томск",
        "code":"tmsk",
        "count":5,
        "country_id":20,
        "country":"Россия",
        "pop":0.1935,
        "lat":56.49771,
        "lon":84.97437
    },
    {
        "id":46,
        "name":"Тула",
        "code":"tula",
        "count":6,
        "country_id":20,
        "country":"Россия",
        "pop":0.0454,
        "lat":54.19609,
        "lon":37.61822
    },
    {
        "id":119,
        "name":"Тюмень",
        "code":"tyum",
        "count":10,
        "country_id":20,
        "country":"Россия",
        "pop":0.3225,
        "lat":57.15222,
        "lon":65.52722
    },
    {
        "id":262,
        "name":"Ульяновск",
        "code":"ulya",
        "count":4,
        "country_id":20,
        "country":"Россия",
        "pop":0.0572,
        "lat":54.32824,
        "lon":48.38657
    },
    {
        "id":116,
        "name":"Уфа",
        "code":"ufa",
        "count":11,
        "country_id":20,
        "country":"Россия",
        "pop":0.4815,
        "lat":54.74306,
        "lon":55.96779
    },
    {
        "id":171,
        "name":"Хабаровск",
        "code":"khab",
        "count":5,
        "country_id":20,
        "country":"Россия",
        "pop":0.1072,
        "lat":48.48272,
        "lon":135.08379
    },
    {
        "id":10,
        "name":"Чебоксары",
        "code":"cheb",
        "count":8,
        "country_id":20,
        "country":"Россия",
        "pop":0.0927,
        "lat":56.13222,
        "lon":47.25194
    },
    {
        "id":18,
        "name":"Челябинск",
        "code":"chel",
        "count":13,
        "country_id":20,
        "country":"Россия",
        "pop":0.4487,
        "lat":55.15402,
        "lon":61.42915
    },
    {
        "id":117,
        "name":"Череповец",
        "code":"chrp",
        "count":8,
        "country_id":20,
        "country":"Россия",
        "pop":0.0318,
        "lat":59.13333,
        "lon":37.9
    },
    {
        "id":118,
        "name":"Ярославль",
        "code":"yars",
        "count":9,
        "country_id":20,
        "country":"Россия",
        "pop":0.1072,
        "lat":57.62987,
        "lon":39.87368
    },
    {
        "id":245,
        "name":"Бирмингем",
        "code":"brmn",
        "count":0,
        "country_id":21,
        "country":"Великобритания",
        "pop":0.0018,
        "lat":52.48142,
        "lon":-1.89983
    },
    {
        "id":243,
        "name":"Ливерпуль",
        "code":"lvrp",
        "count":0,
        "country_id":21,
        "country":"Великобритания",
        "pop":0.0009,
        "lat":53.41058,
        "lon":-2.97794
    },
    {
        "id":75,
        "name":"Лондон",
        "code":"lndn",
        "count":7,
        "country_id":21,
        "country":"Великобритания",
        "pop":0.2653,
        "lat":51.50853,
        "lon":-0.12574
    },
    {
        "id":244,
        "name":"Манчестер",
        "code":"mnch",
        "count":0,
        "country_id":21,
        "country":"Великобритания",
        "pop":0.0191,
        "lat":53.48095,
        "lon":-2.23743
    },
    {
        "id":140,
        "name":"Копенгаген",
        "code":"cpnh",
        "count":1,
        "country_id":22,
        "country":"Дания",
        "pop":0.0164,
        "lat":55.67594,
        "lon":12.56553
    },
    {
        "id":356,
        "name":"Бостон",
        "code":"bstn",
        "count":4,
        "country_id":23,
        "country":"США",
        "pop":0.0100,
        "lat":42.360278,
        "lon":-71.057778
    },
    {
        "id":247,
        "name":"Лас-Вегас",
        "code":"lasv",
        "count":5,
        "country_id":23,
        "country":"США",
        "pop":0.0182,
        "lat":36.17497,
        "lon":-115.13722
    },
    {
        "id":76,
        "name":"Лос-Анджелес",
        "code":"losan",
        "count":18,
        "country_id":23,
        "country":"США",
        "pop":0.3961,
        "lat":34.05223,
        "lon":-118.24368
    },
    {
        "id":151,
        "name":"Майами",
        "code":"miami",
        "count":19,
        "country_id":23,
        "country":"США",
        "pop":0.3216,
        "lat":25.77427,
        "lon":-80.19366
    },
    {
        "id":81,
        "name":"Нью-Йорк",
        "code":"nyc",
        "count":17,
        "country_id":23,
        "country":"США",
        "pop":0.6813,
        "lat":40.71427,
        "lon":-74.00597
    },
    {
        "id":152,
        "name":"Орландо",
        "code":"orlnd",
        "count":6,
        "country_id":23,
        "country":"США",
        "pop":0.0209,
        "lat":28.53834,
        "lon":-81.37924
    },
    {
        "id":239,
        "name":"Сиэтл",
        "code":"seat",
        "count":5,
        "country_id":23,
        "country":"США",
        "pop":0.0382,
        "lat":47.60621,
        "lon":-122.33207
    },
    {
        "id":246,
        "name":"Филадельфия",
        "code":"phild",
        "count":6,
        "country_id":23,
        "country":"США",
        "pop":0.0427,
        "lat":39.95234,
        "lon":-75.16379
    },
    {
        "id":150,
        "name":"Чикаго",
        "code":"chcg",
        "count":13,
        "country_id":23,
        "country":"США",
        "pop":0.1544,
        "lat":41.85003,
        "lon":-87.65005
    },
    {
        "id":344,
        "name":"Ванкувер",
        "code":"vncvr",
        "count":2,
        "country_id":24,
        "country":"Канада",
        "pop":0.0273,
        "lat":49.261111,
        "lon":-123.113889
    },
    {
        "id":238,
        "name":"Калгари",
        "code":"clgr",
        "count":7,
        "country_id":24,
        "country":"Канада",
        "pop":0.0245,
        "lat":51.05011,
        "lon":-114.08529
    },
    {
        "id":237,
        "name":"Квебек",
        "code":"queb",
        "count":7,
        "country_id":24,
        "country":"Канада",
        "pop":0.0000,
        "lat":46.81228,
        "lon":-71.21454
    },
    {
        "id":236,
        "name":"Монреаль",
        "code":"mntr",
        "count":7,
        "country_id":24,
        "country":"Канада",
        "pop":0.0100,
        "lat":45.50884,
        "lon":-73.58781
    },
    {
        "id":345,
        "name":"Оттава",
        "code":"ottw",
        "count":2,
        "country_id":24,
        "country":"Канада",
        "pop":0.0027,
        "lat":45.421535,
        "lon":-75.712123
    },
    {
        "id":235,
        "name":"Торонто",
        "code":"trnt",
        "count":9,
        "country_id":24,
        "country":"Канада",
        "pop":0.1045,
        "lat":43.70011,
        "lon":-79.4163
    },
    {
        "id":343,
        "name":"Эдмонтон",
        "code":"edmnt",
        "count":2,
        "country_id":24,
        "country":"Канада",
        "pop":0.0127,
        "lat":53.534444,
        "lon":-113.490278
    },
    {
        "id":156,
        "name":"Мехико",
        "code":"cdmx",
        "count":7,
        "country_id":25,
        "country":"Мексика",
        "pop":0.0663,
        "lat":19.42847,
        "lon":-99.12766
    },
    {
        "id":86,
        "name":"Берлин",
        "code":"ber",
        "count":8,
        "country_id":29,
        "country":"Германия",
        "pop":0.7976,
        "lat":52.52437,
        "lon":13.41053
    },
    {
        "id":354,
        "name":"Бремен",
        "code":"bremn",
        "count":0,
        "country_id":29,
        "country":"Германия",
        "pop":0.0100,
        "lat":53.083333,
        "lon":8.8
    },
    {
        "id":141,
        "name":"Гамбург",
        "code":"hamb",
        "count":2,
        "country_id":29,
        "country":"Германия",
        "pop":0.1026,
        "lat":53.57532,
        "lon":10.01534
    },
    {
        "id":342,
        "name":"Ганновер",
        "code":"hnvr",
        "count":1,
        "country_id":29,
        "country":"Германия",
        "pop":0.0345,
        "lat":52.366667,
        "lon":9.716667
    },
    {
        "id":224,
        "name":"Дортмунд",
        "code":"drtm",
        "count":1,
        "country_id":29,
        "country":"Германия",
        "pop":0.0327,
        "lat":51.51494,
        "lon":7.466
    },
    {
        "id":84,
        "name":"Дрезден",
        "code":"dres",
        "count":2,
        "country_id":29,
        "country":"Германия",
        "pop":0.0336,
        "lat":51.05089,
        "lon":13.73832
    },
    {
        "id":223,
        "name":"Дюссельдорф",
        "code":"duss",
        "count":1,
        "country_id":29,
        "country":"Германия",
        "pop":0.1662,
        "lat":51.22172,
        "lon":6.77616
    },
    {
        "id":222,
        "name":"Кельн",
        "code":"clgn",
        "count":1,
        "country_id":29,
        "country":"Германия",
        "pop":0.0790,
        "lat":50.93333,
        "lon":6.95
    },
    {
        "id":142,
        "name":"Лейпциг",
        "code":"lzig",
        "count":1,
        "country_id":29,
        "country":"Германия",
        "pop":0.0182,
        "lat":51.33962,
        "lon":12.37129
    },
    {
        "id":85,
        "name":"Мюнхен",
        "code":"mun",
        "count":2,
        "country_id":29,
        "country":"Германия",
        "pop":0.1735,
        "lat":48.13743,
        "lon":11.57549
    },
    {
        "id":355,
        "name":"Нюрнберг",
        "code":"nrmbr",
        "count":0,
        "country_id":29,
        "country":"Германия",
        "pop":0.0218,
        "lat":49.453889,
        "lon":11.0775
    },
    {
        "id":87,
        "name":"Франкфурт-на-Майне",
        "code":"fran",
        "count":5,
        "country_id":29,
        "country":"Германия",
        "pop":0.2071,
        "lat":50.11552,
        "lon":8.68417
    },
    {
        "id":353,
        "name":"Штутгарт",
        "code":"sttgr",
        "count":1,
        "country_id":29,
        "country":"Германия",
        "pop":0.0500,
        "lat":48.7775,
        "lon":9.18
    },
    {
        "id":352,
        "name":"Эссен",
        "code":"essn",
        "count":0,
        "country_id":29,
        "country":"Германия",
        "pop":0.0091,
        "lat":51.450833,
        "lon":7.013056
    },
    {
        "id":97,
        "name":"Исфахан",
        "code":"isfhn",
        "count":0,
        "country_id":30,
        "country":"Иран",
        "pop":0.0000,
        "lat":32.65246,
        "lon":51.67462
    },
    {
        "id":175,
        "name":"Нордуз",
        "code":"nrdz",
        "count":0,
        "country_id":30,
        "country":"Иран",
        "pop":0.0000,
        "lat":38.8481685,
        "lon":46.2018197
    },
    {
        "id":57,
        "name":"Тегеран",
        "code":"tehr",
        "count":0,
        "country_id":30,
        "country":"Иран",
        "pop":0.0000,
        "lat":35.69439,
        "lon":51.42151
    },
    {
        "id":89,
        "name":"Амстердам",
        "code":"amst",
        "count":7,
        "country_id":33,
        "country":"Нидерланды",
        "pop":0.1572,
        "lat":52.37403,
        "lon":4.88969
    },
    {
        "id":144,
        "name":"Роттердам",
        "code":"rtrd",
        "count":1,
        "country_id":33,
        "country":"Нидерланды",
        "pop":0.0127,
        "lat":51.9225,
        "lon":4.47917
    },
    {
        "id":261,
        "name":"Утрехт",
        "code":"utr",
        "count":0,
        "country_id":33,
        "country":"Нидерланды",
        "pop":0.0027,
        "lat":52.09083,
        "lon":5.12222
    },
    {
        "id":188,
        "name":"Тель-Авив",
        "code":"tlav",
        "count":17,
        "country_id":34,
        "country":"Израиль",
        "pop":0.3098,
        "lat":32.08088,
        "lon":34.78057
    },
    {
        "id":227,
        "name":"Аликанте",
        "code":"alic",
        "count":2,
        "country_id":35,
        "country":"Испания",
        "pop":0.2462,
        "lat":38.34517,
        "lon":-0.48149
    },
    {
        "id":91,
        "name":"Барселона",
        "code":"barc",
        "count":3,
        "country_id":35,
        "country":"Испания",
        "pop":0.4442,
        "lat":41.38879,
        "lon":2.15899
    },
    {
        "id":351,
        "name":"Бенидорм",
        "code":"bndrm",
        "count":1,
        "country_id":35,
        "country":"Испания",
        "pop":0.0209,
        "lat":38.534167,
        "lon":-0.131389
    },
    {
        "id":147,
        "name":"Валенсия",
        "code":"valen",
        "count":2,
        "country_id":35,
        "country":"Испания",
        "pop":0.2771,
        "lat":39.46975,
        "lon":-0.37739
    },
    {
        "id":303,
        "name":"Ибица",
        "code":"ibz",
        "count":0,
        "country_id":35,
        "country":"Испания",
        "pop":0.0045,
        "lat":38.90883,
        "lon":1.43296
    },
    {
        "id":148,
        "name":"Мадрид",
        "code":"madr",
        "count":5,
        "country_id":35,
        "country":"Испания",
        "pop":0.2207,
        "lat":40.4165,
        "lon":-3.70256
    },
    {
        "id":304,
        "name":"Майорка",
        "code":"mllrc",
        "count":0,
        "country_id":35,
        "country":"Испания",
        "pop":0.0055,
        "lat":39.613498,
        "lon":2.9116515
    },
    {
        "id":149,
        "name":"Малага",
        "code":"mlg",
        "count":2,
        "country_id":35,
        "country":"Испания",
        "pop":0.0627,
        "lat":36.72016,
        "lon":-4.42034
    },
    {
        "id":218,
        "name":"Марбелья",
        "code":"mrbl",
        "count":2,
        "country_id":35,
        "country":"Испания",
        "pop":0.1163,
        "lat":36.51543,
        "lon":-4.88583
    },
    {
        "id":241,
        "name":"Мурсия",
        "code":"mrc",
        "count":1,
        "country_id":35,
        "country":"Испания",
        "pop":0.0154,
        "lat":37.98704,
        "lon":-1.13004
    },
    {
        "id":240,
        "name":"Сарагоса",
        "code":"zrgz",
        "count":1,
        "country_id":35,
        "country":"Испания",
        "pop":0.0018,
        "lat":41.65606,
        "lon":-0.87734
    },
    {
        "id":226,
        "name":"Севилья",
        "code":"svl",
        "count":1,
        "country_id":35,
        "country":"Испания",
        "pop":0.0091,
        "lat":37.38283,
        "lon":-5.97317
    },
    {
        "id":305,
        "name":"Тенерифе",
        "code":"tnrf",
        "count":0,
        "country_id":35,
        "country":"Испания",
        "pop":0.0154,
        "lat":28.4679147,
        "lon":-16.2717582
    },
    {
        "id":214,
        "name":"Буэнос-Айрес",
        "code":"bsas",
        "count":10,
        "country_id":40,
        "country":"Аргентина",
        "pop":0.1671,
        "lat":-34.61315,
        "lon":-58.37723
    },
    {
        "id":288,
        "name":"Сингапур",
        "code":"sngpr",
        "count":4,
        "country_id":42,
        "country":"Сингапур",
        "pop":0.0173,
        "lat":1.28967,
        "lon":103.85007
    },
    {
        "id":249,
        "name":"Бали",
        "code":"bali",
        "count":17,
        "country_id":45,
        "country":"Индонезия",
        "pop":0.1635,
        "lat":-8.6788937,
        "lon":115.2051022
    },
    {
        "id":209,
        "name":"Дублин",
        "code":"dubl",
        "count":0,
        "country_id":55,
        "country":"Ирландия",
        "pop":0.0808,
        "lat":53.33306,
        "lon":-6.24889
    },
    {
        "id":143,
        "name":"Антверпен",
        "code":"antw",
        "count":0,
        "country_id":56,
        "country":"Бельгия",
        "pop":0.0191,
        "lat":51.21989,
        "lon":4.40346
    },
    {
        "id":94,
        "name":"Брюссель",
        "code":"brus",
        "count":0,
        "country_id":56,
        "country":"Бельгия",
        "pop":0.0645,
        "lat":50.85045,
        "lon":4.34878
    },
    {
        "id":295,
        "name":"Бразилиа",
        "code":"brsl",
        "count":2,
        "country_id":58,
        "country":"Бразилия",
        "pop":0.0000,
        "lat":-15.7883443,
        "lon":-47.8960841
    },
    {
        "id":294,
        "name":"Рио-де-Жанейро",
        "code":"rdjnr",
        "count":3,
        "country_id":58,
        "country":"Бразилия",
        "pop":0.0100,
        "lat":-22.90278,
        "lon":-43.2075
    },
    {
        "id":296,
        "name":"Сальвадор",
        "code":"sldr",
        "count":0,
        "country_id":58,
        "country":"Бразилия",
        "pop":0.0000,
        "lat":-12.9819066,
        "lon":-38.4904756
    },
    {
        "id":293,
        "name":"Сан-Паулу",
        "code":"spl",
        "count":4,
        "country_id":58,
        "country":"Бразилия",
        "pop":0.0100,
        "lat":-23.5475,
        "lon":-46.63611
    },
    {
        "id":297,
        "name":"Форталеза",
        "code":"frtlz",
        "count":0,
        "country_id":58,
        "country":"Бразилия",
        "pop":0.0000,
        "lat":-3.71722,
        "lon":-38.54306
    },
    {
        "id":219,
        "name":"Женева",
        "code":"gnv",
        "count":2,
        "country_id":59,
        "country":"Швейцария",
        "pop":0.0681,
        "lat":46.20222,
        "lon":6.14569
    },
    {
        "id":220,
        "name":"Цюрих",
        "code":"zrch",
        "count":3,
        "country_id":59,
        "country":"Швейцария",
        "pop":0.0500,
        "lat":47.36667,
        "lon":8.55
    },
    {
        "id":329,
        "name":"Йоханнесбург",
        "code":"jhnsb",
        "count":2,
        "country_id":60,
        "country":"Южно-Африканская Республика",
        "pop":0.0018,
        "lat":-26.204444,
        "lon":28.045556
    },
    {
        "id":284,
        "name":"Александрия",
        "code":"lxndr",
        "count":2,
        "country_id":61,
        "country":"Египет",
        "pop":0.0045,
        "lat":31.21564,
        "lon":29.95527
    },
    {
        "id":283,
        "name":"Каир",
        "code":"car",
        "count":5,
        "country_id":61,
        "country":"Египет",
        "pop":0.0327,
        "lat":30.06263,
        "lon":31.24967
    },
    {
        "id":319,
        "name":"Абуджа",
        "code":"abj",
        "count":1,
        "country_id":62,
        "country":"Нигерия",
        "pop":0.0009,
        "lat":9.066667,
        "lon":7.483333
    },
    {
        "id":320,
        "name":"Кано",
        "code":"kano",
        "count":1,
        "country_id":62,
        "country":"Нигерия",
        "pop":0.0000,
        "lat":12,
        "lon":8.516667
    },
    {
        "id":318,
        "name":"Лагос",
        "code":"lgs",
        "count":1,
        "country_id":62,
        "country":"Нигерия",
        "pop":0.0000,
        "lat":6.455027,
        "lon":3.384082
    },
    {
        "id":335,
        "name":"Дар-эс-Салам",
        "code":"drssl",
        "count":2,
        "country_id":63,
        "country":"Танзания",
        "pop":0.0009,
        "lat":-6.816111,
        "lon":39.280278
    },
    {
        "id":322,
        "name":"Дакар",
        "code":"dkr",
        "count":1,
        "country_id":65,
        "country":"Сенегал",
        "pop":0.0009,
        "lat":14.692778,
        "lon":-17.446667
    },
    {
        "id":310,
        "name":"Аккра",
        "code":"accr",
        "count":1,
        "country_id":66,
        "country":"Гана",
        "pop":0.0036,
        "lat":5.55,
        "lon":-0.2
    },
    {
        "id":311,
        "name":"Кумаси",
        "code":"kms",
        "count":1,
        "country_id":66,
        "country":"Гана",
        "pop":0.0000,
        "lat":6.7,
        "lon":-1.625
    },
    {
        "id":312,
        "name":"Тема",
        "code":"tema",
        "count":1,
        "country_id":66,
        "country":"Гана",
        "pop":0.0000,
        "lat":5.7016077,
        "lon":0.0212493
    },
    {
        "id":315,
        "name":"Дуала",
        "code":"dla",
        "count":1,
        "country_id":68,
        "country":"Камерун",
        "pop":0.0000,
        "lat":4.05,
        "lon":9.7
    },
    {
        "id":314,
        "name":"Яунде",
        "code":"ynd",
        "count":1,
        "country_id":68,
        "country":"Камерун",
        "pop":0.0000,
        "lat":3.866667,
        "lon":11.516667
    },
    {
        "id":307,
        "name":"Луанда",
        "code":"lnd",
        "count":1,
        "country_id":70,
        "country":"Ангола",
        "pop":0.0009,
        "lat":-8.838333,
        "lon":13.234444
    },
    {
        "id":331,
        "name":"Момбаса",
        "code":"mmbs",
        "count":1,
        "country_id":71,
        "country":"Кения",
        "pop":0.0009,
        "lat":-4.05,
        "lon":39.666667
    },
    {
        "id":330,
        "name":"Найроби",
        "code":"nrb",
        "count":1,
        "country_id":71,
        "country":"Кения",
        "pop":0.0018,
        "lat":-1.286389,
        "lon":36.817222
    },
    {
        "id":328,
        "name":"Либревиль",
        "code":"lbrvl",
        "count":1,
        "country_id":72,
        "country":"Габон",
        "pop":0.0000,
        "lat":0.390278,
        "lon":9.454167
    },
    {
        "id":337,
        "name":"Бамако",
        "code":"bmk",
        "count":1,
        "country_id":73,
        "country":"Мали",
        "pop":0.0009,
        "lat":12.639167,
        "lon":-8.002778
    },
    {
        "id":325,
        "name":"Котону",
        "code":"ctn",
        "count":1,
        "country_id":74,
        "country":"Бенин",
        "pop":0.0000,
        "lat":6.366667,
        "lon":2.433333
    },
    {
        "id":134,
        "name":"Триполи",
        "code":"trip",
        "count":0,
        "country_id":78,
        "country":"Ливия",
        "pop":0.0000,
        "lat":32.87519,
        "lon":13.18746
    },
    {
        "id":333,
        "name":"Кигали",
        "code":"kgl",
        "count":1,
        "country_id":80,
        "country":"Руанда",
        "pop":0.0009,
        "lat":-1.943889,
        "lon":30.059444
    },
    {
        "id":309,
        "name":"Банжул",
        "code":"bnjl",
        "count":1,
        "country_id":82,
        "country":"Гамбия",
        "pop":0.0000,
        "lat":13.453056,
        "lon":-16.5775
    },
    {
        "id":316,
        "name":"Браззавиль",
        "code":"brzvl",
        "count":1,
        "country_id":85,
        "country":"Конго",
        "pop":0.0000,
        "lat":-4.269444,
        "lon":15.271389
    },
    {
        "id":317,
        "name":"Киншаса",
        "code":"knshs",
        "count":1,
        "country_id":85,
        "country":"Конго",
        "pop":0.0000,
        "lat":-4.325,
        "lon":15.322222
    },
    {
        "id":336,
        "name":"Кампала",
        "code":"kmpl",
        "count":1,
        "country_id":86,
        "country":"Уганда",
        "pop":0.0009,
        "lat":0.313611,
        "lon":32.581111
    },
    {
        "id":339,
        "name":"Бобо-Диуласо",
        "code":"bbdls",
        "count":1,
        "country_id":87,
        "country":"Буркина Фасо",
        "pop":0.0000,
        "lat":11.183333,
        "lon":-4.283333
    },
    {
        "id":338,
        "name":"Уагадугу",
        "code":"ugdg",
        "count":1,
        "country_id":87,
        "country":"Буркина Фасо",
        "pop":0.0018,
        "lat":12.368611,
        "lon":-1.5275
    },
    {
        "id":334,
        "name":"Фритаун",
        "code":"frtwn",
        "count":1,
        "country_id":88,
        "country":"Сьерра-Леоне",
        "pop":0.0009,
        "lat":8.484444,
        "lon":-13.234444
    },
    {
        "id":321,
        "name":"Могадишо",
        "code":"mgdsh",
        "count":1,
        "country_id":89,
        "country":"Сомали",
        "pop":0.0009,
        "lat":2.039167,
        "lon":45.341944
    },
    {
        "id":324,
        "name":"Хараре",
        "code":"hrr",
        "count":1,
        "country_id":90,
        "country":"Зимбабве",
        "pop":0.0027,
        "lat":-17.829167,
        "lon":31.052222
    },
    {
        "id":326,
        "name":"Ниамей",
        "code":"nmy",
        "count":1,
        "country_id":92,
        "country":"Нигер",
        "pop":0.0000,
        "lat":13.515,
        "lon":2.1175
    },
    {
        "id":323,
        "name":"Ломе",
        "code":"lome",
        "count":1,
        "country_id":95,
        "country":"Того",
        "pop":0.0027,
        "lat":6.131944,
        "lon":1.222778
    },
    {
        "id":313,
        "name":"Конакри",
        "code":"cnkr",
        "count":1,
        "country_id":96,
        "country":"Гвинея",
        "pop":0.0009,
        "lat":9.509167,
        "lon":-13.712222
    },
    {
        "id":332,
        "name":"Монровия",
        "code":"mnrv",
        "count":1,
        "country_id":97,
        "country":"Либерия",
        "pop":0.0000,
        "lat":6.313333,
        "lon":-10.801389
    },
    {
        "id":132,
        "name":"Джерба",
        "code":"djrb",
        "count":1,
        "country_id":108,
        "country":"Тунис",
        "pop":0.0009,
        "lat":33.8025397,
        "lon":10.8495395
    },
    {
        "id":133,
        "name":"Тунис",
        "code":"tunis",
        "count":1,
        "country_id":108,
        "country":"Тунис",
        "pop":0.0000,
        "lat":36.81897,
        "lon":10.16579
    },
    {
        "id":199,
        "name":"Аланья",
        "code":"alan",
        "count":24,
        "country_id":109,
        "country":"Турция",
        "pop":0.8784,
        "lat":36.54375,
        "lon":31.99982
    },
    {
        "id":168,
        "name":"Анкара",
        "code":"ankr",
        "count":17,
        "country_id":109,
        "country":"Турция",
        "pop":0.0173,
        "lat":39.91987,
        "lon":32.85427
    },
    {
        "id":167,
        "name":"Анталья",
        "code":"antl",
        "count":31,
        "country_id":109,
        "country":"Турция",
        "pop":0.9048,
        "lat":36.90812,
        "lon":30.69556
    },
    {
        "id":201,
        "name":"Белек",
        "code":"blk",
        "count":8,
        "country_id":109,
        "country":"Турция",
        "pop":0.0209,
        "lat":36.8627242,
        "lon":31.0584567
    },
    {
        "id":302,
        "name":"Бодрум",
        "code":"bdrm",
        "count":3,
        "country_id":109,
        "country":"Турция",
        "pop":0.0154,
        "lat":37.0357904,
        "lon":27.4127739
    },
    {
        "id":190,
        "name":"Бурса",
        "code":"burs",
        "count":6,
        "country_id":109,
        "country":"Турция",
        "pop":0.0045,
        "lat":40.19266,
        "lon":29.08403
    },
    {
        "id":207,
        "name":"Газипаша",
        "code":"gzp",
        "count":7,
        "country_id":109,
        "country":"Турция",
        "pop":0.0045,
        "lat":36.2722612,
        "lon":32.3137562
    },
    {
        "id":189,
        "name":"Измир",
        "code":"izmr",
        "count":14,
        "country_id":109,
        "country":"Турция",
        "pop":0.0182,
        "lat":38.41273,
        "lon":27.13838
    },
    {
        "id":200,
        "name":"Кемер",
        "code":"kmr",
        "count":6,
        "country_id":109,
        "country":"Турция",
        "pop":0.0227,
        "lat":36.6024776,
        "lon":30.5600468
    },
    {
        "id":208,
        "name":"Мерсин",
        "code":"mrs",
        "count":13,
        "country_id":109,
        "country":"Турция",
        "pop":0.0454,
        "lat":36.79526,
        "lon":34.61792
    },
    {
        "id":268,
        "name":"Самсун",
        "code":"smsn",
        "count":3,
        "country_id":109,
        "country":"Турция",
        "pop":0.0018,
        "lat":41.28667,
        "lon":36.33
    },
    {
        "id":54,
        "name":"Стамбул",
        "code":"stam",
        "count":40,
        "country_id":109,
        "country":"Турция",
        "pop":1.0892,
        "lat":41.01384,
        "lon":28.94966
    },
    {
        "id":95,
        "name":"Варшава",
        "code":"wars",
        "count":31,
        "country_id":110,
        "country":"Польша",
        "pop":1.2109,
        "lat":52.22977,
        "lon":21.01178
    },
    {
        "id":192,
        "name":"Вроцлав",
        "code":"wrcl",
        "count":19,
        "country_id":110,
        "country":"Польша",
        "pop":0.2107,
        "lat":51.1,
        "lon":17.03333
    },
    {
        "id":193,
        "name":"Гданьск",
        "code":"gdn",
        "count":15,
        "country_id":110,
        "country":"Польша",
        "pop":0.0927,
        "lat":54.35205,
        "lon":18.64637
    },
    {
        "id":361,
        "name":"Жешув",
        "code":"rzszw",
        "count":4,
        "country_id":110,
        "country":"Польша",
        "pop":0.0073,
        "lat":50.033333,
        "lon":22
    },
    {
        "id":194,
        "name":"Краков",
        "code":"krkw",
        "count":19,
        "country_id":110,
        "country":"Польша",
        "pop":0.1808,
        "lat":50.06143,
        "lon":19.93658
    },
    {
        "id":216,
        "name":"Лодзь",
        "code":"lodz",
        "count":14,
        "country_id":110,
        "country":"Польша",
        "pop":0.0263,
        "lat":51.75,
        "lon":19.46667
    },
    {
        "id":363,
        "name":"Люблин",
        "code":"lbln",
        "count":6,
        "country_id":110,
        "country":"Польша",
        "pop":0.0073,
        "lat":51.25,
        "lon":22.566667
    },
    {
        "id":341,
        "name":"Познань",
        "code":"pznn",
        "count":6,
        "country_id":110,
        "country":"Польша",
        "pop":0.0572,
        "lat":52.408333,
        "lon":16.934167
    },
    {
        "id":215,
        "name":"Пшемысль",
        "code":"prz",
        "count":12,
        "country_id":110,
        "country":"Польша",
        "pop":0.0282,
        "lat":49.78498,
        "lon":22.76728
    },
    {
        "id":362,
        "name":"Щецин",
        "code":"szczc",
        "count":4,
        "country_id":110,
        "country":"Польша",
        "pop":0.0045,
        "lat":53.4325,
        "lon":14.548056
    },
    {
        "id":48,
        "name":"Рига",
        "code":"riga",
        "count":7,
        "country_id":111,
        "country":"Латвия",
        "pop":0.2752,
        "lat":56.946,
        "lon":24.10589
    },
    {
        "id":11,
        "name":"Антрацит",
        "code":"antr",
        "count":0,
        "country_id":112,
        "country":"Украина",
        "pop":0.0000,
        "lat":48.1202628,
        "lon":39.0908286
    },
    {
        "id":197,
        "name":"Бердянск",
        "code":"brdnk",
        "count":0,
        "country_id":112,
        "country":"Украина",
        "pop":0.0000,
        "lat":46.7663,
        "lon":36.79882
    },
    {
        "id":60,
        "name":"Винница",
        "code":"vinn",
        "count":18,
        "country_id":112,
        "country":"Украина",
        "pop":0.2589,
        "lat":49.23278,
        "lon":28.48097
    },
    {
        "id":33,
        "name":"Днепр",
        "code":"dnpr",
        "count":21,
        "country_id":112,
        "country":"Украина",
        "pop":0.3434,
        "lat":48.45,
        "lon":34.98333
    },
    {
        "id":35,
        "name":"Донецк",
        "code":"dnt",
        "count":0,
        "country_id":112,
        "country":"Украина",
        "pop":0.0000,
        "lat":48.023,
        "lon":37.80224
    },
    {
        "id":61,
        "name":"Житомир",
        "code":"zhyto",
        "count":16,
        "country_id":112,
        "country":"Украина",
        "pop":0.1626,
        "lat":50.26487,
        "lon":28.67669
    },
    {
        "id":39,
        "name":"Запорожье",
        "code":"zap",
        "count":17,
        "country_id":112,
        "country":"Украина",
        "pop":0.2362,
        "lat":47.82289,
        "lon":35.19031
    },
    {
        "id":62,
        "name":"Ивано-Франковск",
        "code":"ivfr",
        "count":18,
        "country_id":112,
        "country":"Украина",
        "pop":0.1535,
        "lat":48.9215,
        "lon":24.70972
    },
    {
        "id":364,
        "name":"Каменское",
        "code":"kmnsk",
        "count":2,
        "country_id":112,
        "country":"Украина",
        "pop":0.0055,
        "lat":48.516667,
        "lon":34.616667
    },
    {
        "id":3,
        "name":"Киев",
        "code":"kiev",
        "count":29,
        "country_id":112,
        "country":"Украина",
        "pop":5.6275,
        "lat":50.45466,
        "lon":30.5238
    },
    {
        "id":196,
        "name":"Ковель",
        "code":"kvl",
        "count":12,
        "country_id":112,
        "country":"Украина",
        "pop":0.0363,
        "lat":51.21526,
        "lon":24.70867
    },
    {
        "id":64,
        "name":"Краматорск",
        "code":"kram",
        "count":0,
        "country_id":112,
        "country":"Украина",
        "pop":0.0055,
        "lat":48.72305,
        "lon":37.55629
    },
    {
        "id":47,
        "name":"Кременчуг",
        "code":"krmn",
        "count":15,
        "country_id":112,
        "country":"Украина",
        "pop":0.0908,
        "lat":49.06802,
        "lon":33.42041
    },
    {
        "id":28,
        "name":"Кривой Рог",
        "code":"krvr",
        "count":16,
        "country_id":112,
        "country":"Украина",
        "pop":0.1090,
        "lat":47.90966,
        "lon":33.38044
    },
    {
        "id":63,
        "name":"Кропивницкий",
        "code":"krop",
        "count":16,
        "country_id":112,
        "country":"Украина",
        "pop":0.0899,
        "lat":48.5132,
        "lon":32.2597
    },
    {
        "id":120,
        "name":"Луганск",
        "code":"luh",
        "count":0,
        "country_id":112,
        "country":"Украина",
        "pop":0.0000,
        "lat":48.56705,
        "lon":39.31706
    },
    {
        "id":65,
        "name":"Луцк",
        "code":"lutsk",
        "count":16,
        "country_id":112,
        "country":"Украина",
        "pop":0.0790,
        "lat":50.75932,
        "lon":25.34244
    },
    {
        "id":26,
        "name":"Львов",
        "code":"lvov",
        "count":23,
        "country_id":112,
        "country":"Украина",
        "pop":0.5369,
        "lat":49.83826,
        "lon":24.02324
    },
    {
        "id":32,
        "name":"Мариуполь",
        "code":"mrpl",
        "count":0,
        "country_id":112,
        "country":"Украина",
        "pop":0.0454,
        "lat":47.09514,
        "lon":37.54131
    },
    {
        "id":66,
        "name":"Мелитополь",
        "code":"melit",
        "count":0,
        "country_id":112,
        "country":"Украина",
        "pop":0.0000,
        "lat":46.84891,
        "lon":35.36533
    },
    {
        "id":185,
        "name":"Мукачево",
        "code":"mkch",
        "count":14,
        "country_id":112,
        "country":"Украина",
        "pop":0.0572,
        "lat":48.43919,
        "lon":22.71779
    },
    {
        "id":40,
        "name":"Николаев",
        "code":"mykl",
        "count":15,
        "country_id":112,
        "country":"Украина",
        "pop":0.1026,
        "lat":46.96591,
        "lon":31.9974
    },
    {
        "id":38,
        "name":"Одесса",
        "code":"ods",
        "count":22,
        "country_id":112,
        "country":"Украина",
        "pop":0.8475,
        "lat":46.47747,
        "lon":30.73262
    },
    {
        "id":49,
        "name":"Полтава",
        "code":"polt",
        "count":16,
        "country_id":112,
        "country":"Украина",
        "pop":0.1726,
        "lat":49.59373,
        "lon":34.54073
    },
    {
        "id":67,
        "name":"Ровно",
        "code":"rivne",
        "count":16,
        "country_id":112,
        "country":"Украина",
        "pop":0.2471,
        "lat":50.62308,
        "lon":26.22743
    },
    {
        "id":365,
        "name":"Самбор",
        "code":"smbr",
        "count":2,
        "country_id":112,
        "country":"Украина",
        "pop":0.0027,
        "lat":49.516667,
        "lon":23.202778
    },
    {
        "id":186,
        "name":"Северодонецк",
        "code":"svdn",
        "count":0,
        "country_id":112,
        "country":"Украина",
        "pop":0.0000,
        "lat":48.9509354,
        "lon":38.4866371
    },
    {
        "id":183,
        "name":"Славянск",
        "code":"slv",
        "count":0,
        "country_id":112,
        "country":"Украина",
        "pop":0.0000,
        "lat":48.86667,
        "lon":37.61667
    },
    {
        "id":68,
        "name":"Сумы",
        "code":"sumy",
        "count":16,
        "country_id":112,
        "country":"Украина",
        "pop":0.0709,
        "lat":50.9216,
        "lon":34.80029
    },
    {
        "id":69,
        "name":"Тернополь",
        "code":"terno",
        "count":16,
        "country_id":112,
        "country":"Украина",
        "pop":0.1099,
        "lat":49.55589,
        "lon":25.60556
    },
    {
        "id":70,
        "name":"Ужгород",
        "code":"uzhh",
        "count":16,
        "country_id":112,
        "country":"Украина",
        "pop":0.1372,
        "lat":48.61667,
        "lon":22.3
    },
    {
        "id":21,
        "name":"Харьков",
        "code":"hrk",
        "count":19,
        "country_id":112,
        "country":"Украина",
        "pop":0.6522,
        "lat":49.98081,
        "lon":36.25272
    },
    {
        "id":71,
        "name":"Херсон",
        "code":"khers",
        "count":0,
        "country_id":112,
        "country":"Украина",
        "pop":0.0000,
        "lat":46.65581,
        "lon":32.6178
    },
    {
        "id":27,
        "name":"Хмельницкий",
        "code":"hmln",
        "count":17,
        "country_id":112,
        "country":"Украина",
        "pop":0.1481,
        "lat":49.42161,
        "lon":26.99653
    },
    {
        "id":72,
        "name":"Черкассы",
        "code":"cherk",
        "count":19,
        "country_id":112,
        "country":"Украина",
        "pop":0.1744,
        "lat":49.42854,
        "lon":32.06207
    },
    {
        "id":159,
        "name":"Чернигов",
        "code":"chrn",
        "count":16,
        "country_id":112,
        "country":"Украина",
        "pop":0.1354,
        "lat":51.50551,
        "lon":31.28488
    },
    {
        "id":50,
        "name":"Черновцы",
        "code":"chern",
        "count":20,
        "country_id":112,
        "country":"Украина",
        "pop":0.1971,
        "lat":48.29149,
        "lon":25.94034
    },
    {
        "id":166,
        "name":"Брест",
        "code":"brest",
        "count":0,
        "country_id":113,
        "country":"Беларусь",
        "pop":0.0000,
        "lat":52.09755,
        "lon":23.68775
    },
    {
        "id":122,
        "name":"Витебск",
        "code":"vtb",
        "count":0,
        "country_id":113,
        "country":"Беларусь",
        "pop":0.0000,
        "lat":55.1904,
        "lon":30.2049
    },
    {
        "id":74,
        "name":"Гомель",
        "code":"gomel",
        "count":0,
        "country_id":113,
        "country":"Беларусь",
        "pop":0.0000,
        "lat":52.4345,
        "lon":30.9754
    },
    {
        "id":165,
        "name":"Гродно",
        "code":"grdn",
        "count":0,
        "country_id":113,
        "country":"Беларусь",
        "pop":0.0000,
        "lat":53.6884,
        "lon":23.8258
    },
    {
        "id":4,
        "name":"Минск",
        "code":"minsk",
        "count":1,
        "country_id":113,
        "country":"Беларусь",
        "pop":0.5641,
        "lat":53.9,
        "lon":27.56667
    },
    {
        "id":121,
        "name":"Могилев",
        "code":"mgl",
        "count":0,
        "country_id":113,
        "country":"Беларусь",
        "pop":0.0000,
        "lat":53.9168,
        "lon":30.3449
    },
    {
        "id":359,
        "name":"Брно",
        "code":"brno",
        "count":1,
        "country_id":114,
        "country":"Чехия",
        "pop":0.0082,
        "lat":49.1925,
        "lon":16.608333
    },
    {
        "id":360,
        "name":"Карловы-Вары",
        "code":"krlvr",
        "count":1,
        "country_id":114,
        "country":"Чехия",
        "pop":0.0045,
        "lat":50.230556,
        "lon":12.8725
    },
    {
        "id":83,
        "name":"Прага",
        "code":"prag",
        "count":21,
        "country_id":114,
        "country":"Чехия",
        "pop":0.4869,
        "lat":50.08804,
        "lon":14.42076
    },
    {
        "id":265,
        "name":"Кириния (Северный Кипр)",
        "code":"krn",
        "count":2,
        "country_id":117,
        "country":"Кипр",
        "pop":0.0663,
        "lat":35.3322899,
        "lon":33.2227846
    },
    {
        "id":131,
        "name":"Ларнака",
        "code":"larn",
        "count":5,
        "country_id":117,
        "country":"Кипр",
        "pop":0.0709,
        "lat":34.91667,
        "lon":33.62917
    },
    {
        "id":130,
        "name":"Лимасол",
        "code":"limas",
        "count":6,
        "country_id":117,
        "country":"Кипр",
        "pop":0.2335,
        "lat":34.68406,
        "lon":33.03794
    },
    {
        "id":275,
        "name":"Никосия",
        "code":"ncs",
        "count":1,
        "country_id":117,
        "country":"Кипр",
        "pop":0.0872,
        "lat":35.16667,
        "lon":33.36667
    },
    {
        "id":267,
        "name":"Никосия (Северный Кипр)",
        "code":"ncsn",
        "count":0,
        "country_id":117,
        "country":"Кипр",
        "pop":0.0082,
        "lat":35.1863627,
        "lon":33.388157
    },
    {
        "id":129,
        "name":"Пафос",
        "code":"paph",
        "count":4,
        "country_id":117,
        "country":"Кипр",
        "pop":0.0472,
        "lat":34.76667,
        "lon":32.41667
    },
    {
        "id":266,
        "name":"Фамагуста (Северный Кипр)",
        "code":"fmgs",
        "count":2,
        "country_id":117,
        "country":"Кипр",
        "pop":0.0164,
        "lat":35.1207536,
        "lon":33.9358575
    },
    {
        "id":178,
        "name":"Будапешт",
        "code":"bud",
        "count":10,
        "country_id":118,
        "country":"Венгрия",
        "pop":0.0781,
        "lat":47.49801,
        "lon":19.03991
    },
    {
        "id":180,
        "name":"Братислава",
        "code":"brat",
        "count":7,
        "country_id":119,
        "country":"Словакия",
        "pop":0.1199,
        "lat":48.14816,
        "lon":17.10674
    },
    {
        "id":182,
        "name":"Кошице",
        "code":"ksc",
        "count":3,
        "country_id":119,
        "country":"Словакия",
        "pop":0.0073,
        "lat":48.71395,
        "lon":21.25808
    },
    {
        "id":271,
        "name":"Белград",
        "code":"beog",
        "count":3,
        "country_id":120,
        "country":"Сербия",
        "pop":0.2698,
        "lat":44.80401,
        "lon":20.46513
    },
    {
        "id":273,
        "name":"Ниш",
        "code":"nish",
        "count":0,
        "country_id":120,
        "country":"Сербия",
        "pop":0.0009,
        "lat":43.32472,
        "lon":21.90333
    },
    {
        "id":272,
        "name":"Нови-Сад",
        "code":"nvsd",
        "count":0,
        "country_id":120,
        "country":"Сербия",
        "pop":0.0500,
        "lat":45.25167,
        "lon":19.83694
    },
    {
        "id":350,
        "name":"Бургас",
        "code":"brgs",
        "count":6,
        "country_id":121,
        "country":"Болгария",
        "pop":0.0254,
        "lat":42.502965,
        "lon":27.470179
    },
    {
        "id":198,
        "name":"Варна",
        "code":"varn",
        "count":13,
        "country_id":121,
        "country":"Болгария",
        "pop":0.1290,
        "lat":43.21667,
        "lon":27.91667
    },
    {
        "id":191,
        "name":"София",
        "code":"sfa",
        "count":14,
        "country_id":121,
        "country":"Болгария",
        "pop":0.1299,
        "lat":42.69751,
        "lon":23.32415
    },
    {
        "id":195,
        "name":"Бухарест",
        "code":"bhrt",
        "count":14,
        "country_id":123,
        "country":"Румыния",
        "pop":0.1372,
        "lat":44.43225,
        "lon":26.10626
    },
    {
        "id":217,
        "name":"Констанца",
        "code":"const",
        "count":2,
        "country_id":123,
        "country":"Румыния",
        "pop":0.0045,
        "lat":44.18073,
        "lon":28.63432
    },
    {
        "id":158,
        "name":"Батуми",
        "code":"btm",
        "count":26,
        "country_id":124,
        "country":"Грузия",
        "pop":0.3107,
        "lat":41.64159,
        "lon":41.63593
    },
    {
        "id":206,
        "name":"Рустави",
        "code":"rst",
        "count":5,
        "country_id":124,
        "country":"Грузия",
        "pop":0.0064,
        "lat":41.538903,
        "lon":45.0176849
    },
    {
        "id":52,
        "name":"Тбилиси",
        "code":"tbil",
        "count":39,
        "country_id":124,
        "country":"Грузия",
        "pop":1.6051,
        "lat":41.69411,
        "lon":44.83368
    },
    {
        "id":93,
        "name":"Осло",
        "code":"oslo",
        "count":3,
        "country_id":125,
        "country":"Норвегия",
        "pop":0.0382,
        "lat":59.91273,
        "lon":10.74609
    },
    {
        "id":174,
        "name":"Агарак",
        "code":"agrk",
        "count":0,
        "country_id":126,
        "country":"Армения",
        "pop":0.0000,
        "lat":38.8618476,
        "lon":46.2035928
    },
    {
        "id":9,
        "name":"Ереван",
        "code":"ervn",
        "count":28,
        "country_id":126,
        "country":"Армения",
        "pop":0.7939,
        "lat":40.18111,
        "lon":44.51361
    },
    {
        "id":80,
        "name":"Степанакерт",
        "code":"stpnk",
        "count":0,
        "country_id":126,
        "country":"Армения",
        "pop":0.0000,
        "lat":39.8259721,
        "lon":46.7630383
    },
    {
        "id":181,
        "name":"Вена",
        "code":"wien",
        "count":9,
        "country_id":127,
        "country":"Австрия",
        "pop":0.1671,
        "lat":48.20849,
        "lon":16.37208
    },
    {
        "id":139,
        "name":"Тирана",
        "code":"tiran",
        "count":2,
        "country_id":128,
        "country":"Албания",
        "pop":0.0154,
        "lat":41.3275,
        "lon":19.81889
    },
    {
        "id":289,
        "name":"Любляна",
        "code":"ljblj",
        "count":0,
        "country_id":129,
        "country":"Словения",
        "pop":0.0154,
        "lat":46.05108,
        "lon":14.50513
    },
    {
        "id":210,
        "name":"Панама",
        "code":"pnm",
        "count":5,
        "country_id":130,
        "country":"Панама",
        "pop":0.0209,
        "lat":8.9936,
        "lon":-79.51973
    },
    {
        "id":277,
        "name":"Бар",
        "code":"bar",
        "count":0,
        "country_id":133,
        "country":"Черногория",
        "pop":0.0545,
        "lat":42.1021276,
        "lon":19.0881122
    },
    {
        "id":162,
        "name":"Будва",
        "code":"budva",
        "count":1,
        "country_id":133,
        "country":"Черногория",
        "pop":0.2089,
        "lat":42.28639,
        "lon":18.84
    },
    {
        "id":225,
        "name":"Подгорица",
        "code":"pdgr",
        "count":1,
        "country_id":133,
        "country":"Черногория",
        "pop":0.0808,
        "lat":42.44111,
        "lon":19.26361
    },
    {
        "id":347,
        "name":"Тиват",
        "code":"tvt",
        "count":0,
        "country_id":133,
        "country":"Черногория",
        "pop":0.0209,
        "lat":42.43257,
        "lon":18.699125
    },
    {
        "id":278,
        "name":"Душанбе",
        "code":"dush",
        "count":13,
        "country_id":135,
        "country":"Таджикистан",
        "pop":0.0363,
        "lat":38.53575,
        "lon":68.77905
    },
    {
        "id":285,
        "name":"Бейрут",
        "code":"brt",
        "count":4,
        "country_id":137,
        "country":"Ливан",
        "pop":0.0073,
        "lat":33.88894,
        "lon":35.49442
    },
    {
        "id":51,
        "name":"Кишинев",
        "code":"kish",
        "count":17,
        "country_id":138,
        "country":"Молдова",
        "pop":0.7049,
        "lat":47.00556,
        "lon":28.8575
    },
    {
        "id":179,
        "name":"Тирасполь",
        "code":"trspl",
        "count":1,
        "country_id":138,
        "country":"Молдова",
        "pop":0.0273,
        "lat":46.84028,
        "lon":29.64333
    },
    {
        "id":291,
        "name":"Хельсинки",
        "code":"hlsnk",
        "count":0,
        "country_id":139,
        "country":"Финляндия",
        "pop":0.0309,
        "lat":60.16952,
        "lon":24.93545
    },
    {
        "id":79,
        "name":"Таллин",
        "code":"talln",
        "count":2,
        "country_id":140,
        "country":"Эстония",
        "pop":0.1989,
        "lat":59.43696,
        "lon":24.75353
    },
    {
        "id":96,
        "name":"Вильнюс",
        "code":"viln",
        "count":2,
        "country_id":144,
        "country":"Литва",
        "pop":0.2262,
        "lat":54.68916,
        "lon":25.2798
    },
    {
        "id":221,
        "name":"Каунас",
        "code":"kaun",
        "count":0,
        "country_id":144,
        "country":"Литва",
        "pop":0.0254,
        "lat":54.9,
        "lon":23.9
    },
    {
        "id":348,
        "name":"Мариямполе",
        "code":"mrjmp",
        "count":0,
        "country_id":144,
        "country":"Литва",
        "pop":0.0009,
        "lat":54.547222,
        "lon":23.35
    },
    {
        "id":349,
        "name":"Паневежис",
        "code":"pnvzs",
        "count":2,
        "country_id":144,
        "country":"Литва",
        "pop":0.0027,
        "lat":55.733333,
        "lon":24.35
    },
    {
        "id":290,
        "name":"Люксембург",
        "code":"lxmbr",
        "count":0,
        "country_id":145,
        "country":"Люксембург",
        "pop":0.0082,
        "lat":49.61167,
        "lon":6.13
    },
    {
        "id":281,
        "name":"Скопье",
        "code":"skpj",
        "count":2,
        "country_id":147,
        "country":"Македония",
        "pop":0.0027,
        "lat":41.99646,
        "lon":21.43141
    },
    {
        "id":280,
        "name":"Валлетта",
        "code":"vlltt",
        "count":0,
        "country_id":149,
        "country":"Мальта",
        "pop":0.0045,
        "lat":35.89972,
        "lon":14.51472
    },
    {
        "id":55,
        "name":"Манама",
        "code":"manam",
        "count":1,
        "country_id":151,
        "country":"Бахрейн",
        "pop":0.0036,
        "lat":26.21536,
        "lon":50.5832
    },
    {
        "id":82,
        "name":"Ташкент",
        "code":"tashk",
        "count":20,
        "country_id":152,
        "country":"Узбекистан",
        "pop":0.4469,
        "lat":41.26465,
        "lon":69.21627
    },
    {
        "id":77,
        "name":"Баку",
        "code":"baku",
        "count":18,
        "country_id":153,
        "country":"Азербайджан",
        "pop":0.2743,
        "lat":40.37767,
        "lon":49.89201
    },
    {
        "id":160,
        "name":"Монако",
        "code":"mon",
        "count":0,
        "country_id":154,
        "country":"Монако",
        "pop":0.0173,
        "lat":43.7372609,
        "lon":7.4226025
    },
    {
        "id":153,
        "name":"Гуаякиль",
        "code":"guaq",
        "count":3,
        "country_id":160,
        "country":"Эквадор",
        "pop":0.1889,
        "lat":-2.20584,
        "lon":-79.90795
    },
    {
        "id":187,
        "name":"Кито",
        "code":"quito",
        "count":8,
        "country_id":160,
        "country":"Эквадор",
        "pop":0.0091,
        "lat":-0.22985,
        "lon":-78.52495
    },
    {
        "id":213,
        "name":"Лима",
        "code":"lima",
        "count":5,
        "country_id":161,
        "country":"Перу",
        "pop":0.0091,
        "lat":-12.04318,
        "lon":-77.02824
    },
    {
        "id":211,
        "name":"Богота",
        "code":"bgt",
        "count":5,
        "country_id":163,
        "country":"Колумбия",
        "pop":0.0109,
        "lat":4.60971,
        "lon":-74.08175
    },
    {
        "id":212,
        "name":"Медельин",
        "code":"mdl",
        "count":2,
        "country_id":163,
        "country":"Колумбия",
        "pop":0.0036,
        "lat":6.25184,
        "lon":-75.56359
    },
    {
        "id":155,
        "name":"Санто-Доминго",
        "code":"santd",
        "count":6,
        "country_id":170,
        "country":"Доминиканская республика",
        "pop":0.0109,
        "lat":18.50012,
        "lon":-69.98857
    },
    {
        "id":154,
        "name":"Сантьяго",
        "code":"santg",
        "count":5,
        "country_id":170,
        "country":"Доминиканская республика",
        "pop":0.0109,
        "lat":19.4573972,
        "lon":-70.6968131
    },
    {
        "id":274,
        "name":"Сан-Хосе",
        "code":"snjs",
        "count":6,
        "country_id":173,
        "country":"Коста-Рика",
        "pop":0.0200,
        "lat":9.93333,
        "lon":-84.08333
    },
    {
        "id":287,
        "name":"Доха",
        "code":"doh",
        "count":6,
        "country_id":190,
        "country":"Катар",
        "pop":0.0100,
        "lat":25.27932,
        "lon":51.52245
    },
    {
        "id":279,
        "name":"Загреб",
        "code":"zgrb",
        "count":3,
        "country_id":202,
        "country":"Хорватия",
        "pop":0.0191,
        "lat":45.81444,
        "lon":15.97798
    },
    {
        "id":170,
        "name":"Бишкек",
        "code":"bshk",
        "count":20,
        "country_id":210,
        "country":"Кыргызстан",
        "pop":0.5732,
        "lat":42.87,
        "lon":74.59
    },
    {
        "id":327,
        "name":"Аддис-Абеба",
        "code":"adsbb",
        "count":1,
        "country_id":215,
        "country":"Эфиопия",
        "pop":0.0018,
        "lat":9.03,
        "lon":38.74
    },
    {
        "id":308,
        "name":"Абиджан",
        "code":"abdjn",
        "count":1,
        "country_id":239,
        "country":"Кот-д\\'Ивуар",
        "pop":0.0027,
        "lat":5.316667,
        "lon":-4.033333
    }
]
